{"business_id":"f9NumwFMBDn751xgFiRbNA","name":"The Range At Lake Norman","address":"10913 Bailey Rd","city":"Cornelius","state":"NC","postal_code":"28031","latitude":35.4627242,"longitude":-80.8526119,"stars":3.5,"review_count":36,"is_open":1,"attributes":{"BusinessAcceptsCreditCards":"True","BikeParking":"True","GoodForKids":"False","BusinessParking":"{'garage': False, 'street': False, 'validated': False, 'lot': True, 'valet': False}","ByAppointmentOnly":"False","RestaurantsPriceRange2":"3"},"categories":"Active Life, Gun\/Rifle Ranges, Guns & Ammo, Shopping","hours":{"Monday":"10:0-18:0","Tuesday":"11:0-20:0","Wednesday":"10:0-18:0","Thursday":"11:0-20:0","Friday":"11:0-20:0","Saturday":"11:0-20:0","Sunday":"13:0-18:0"}}
{"business_id":"Yzvjg0SayhoZgCljUJRF9Q","name":"Carlos Santo, NMD","address":"8880 E Via Linda, Ste 107","city":"Scottsdale","state":"AZ","postal_code":"85258","latitude":33.5694041,"longitude":-111.8902637,"stars":5.0,"review_count":4,"is_open":1,"attributes":{"GoodForKids":"True","ByAppointmentOnly":"True"},"categories":"Health & Medical, Fitness & Instruction, Yoga, Active Life, Pilates","hours":null}
{"business_id":"XNoUzKckATkOD1hP6vghZg","name":"Felinus","address":"3554 Rue Notre-Dame O","city":"Montreal","state":"QC","postal_code":"H4C 1P4","latitude":45.479984,"longitude":-73.58007,"stars":5.0,"review_count":5,"is_open":1,"attributes":null,"categories":"Pets, Pet Services, Pet Groomers","hours":null}
{"business_id":"6OAZjbxqM5ol29BuHsil3w","name":"Nevada House of Hose","address":"1015 Sharp Cir","city":"North Las Vegas","state":"NV","postal_code":"89030","latitude":36.2197281,"longitude":-115.1277255,"stars":2.5,"review_count":3,"is_open":0,"attributes":{"BusinessAcceptsCreditCards":"True","ByAppointmentOnly":"False","DogsAllowed":"True","BikeParking":"True","BusinessParking":"{'garage': False, 'street': False, 'validated': False, 'lot': True, 'valet': False}","RestaurantsPriceRange2":"4"},"categories":"Hardware Stores, Home Services, Building Supplies, Home & Garden, Shopping","hours":{"Monday":"7:0-16:0","Tuesday":"7:0-16:0","Wednesday":"7:0-16:0","Thursday":"7:0-16:0","Friday":"7:0-16:0"}}
{"business_id":"51M2Kk903DFYI6gnB5I6SQ","name":"USE MY GUY SERVICES LLC","address":"4827 E Downing Cir","city":"Mesa","state":"AZ","postal_code":"85205","latitude":33.4280652,"longitude":-111.7266485,"stars":4.5,"review_count":26,"is_open":1,"attributes":{"BusinessAcceptsCreditCards":"True","ByAppointmentOnly":"True"},"categories":"Home Services, Plumbing, Electricians, Handyman, Contractors","hours":{"Monday":"0:0-0:0","Tuesday":"9:0-16:0","Wednesday":"9:0-16:0","Thursday":"9:0-16:0","Friday":"9:0-16:0"}}
{"business_id":"cKyLV5oWZJ2NudWgqs8VZw","name":"Oasis Auto Center - Gilbert","address":"1720 W Elliot Rd, Ste 105","city":"Gilbert","state":"AZ","postal_code":"85233","latitude":33.3503993,"longitude":-111.8271417,"stars":4.5,"review_count":38,"is_open":1,"attributes":{"BusinessAcceptsCreditCards":"True"},"categories":"Auto Repair, Automotive, Oil Change Stations, Transmission Repair","hours":{"Monday":"7:0-18:0","Tuesday":"7:0-18:0","Wednesday":"7:0-18:0","Thursday":"7:0-18:0","Friday":"7:0-18:0","Saturday":"7:0-15:0"}}
{"business_id":"oiAlXZPIFm2nBCt0DHLu_Q","name":"Green World Cleaners","address":"6870 S Rainbow Blvd, Ste 117","city":"Las Vegas","state":"NV","postal_code":"89118","latitude":36.0639767,"longitude":-115.241463,"stars":3.5,"review_count":81,"is_open":1,"attributes":{"BusinessParking":"{'garage': False, 'street': False, 'validated': False, 'lot': True, 'valet': False}","BikeParking":"True","WiFi":"u'no'","RestaurantsPriceRange2":"1","BusinessAcceptsCreditCards":"True"},"categories":"Dry Cleaning & Laundry, Local Services, Laundry Services","hours":{"Monday":"7:0-19:0","Tuesday":"7:0-19:0","Wednesday":"7:0-19:0","Thursday":"7:0-19:0","Friday":"7:0-19:0","Saturday":"9:0-17:0"}}
{"business_id":"ScYkbYNkDgCneBrD9vqhCQ","name":"Junction Tire & Auto Service","address":"6910 E Southern Ave","city":"Mesa","state":"AZ","postal_code":"85209","latitude":33.3938847,"longitude":-111.6822257,"stars":5.0,"review_count":18,"is_open":1,"attributes":{"BusinessAcceptsCreditCards":"True","ByAppointmentOnly":"False"},"categories":"Auto Repair, Oil Change Stations, Automotive, Tires","hours":{"Monday":"7:30-17:0","Tuesday":"7:30-17:0","Wednesday":"7:30-17:0","Thursday":"7:30-17:0","Friday":"7:30-17:0","Saturday":"7:30-13:0"}}
{"business_id":"pQeaRpvuhoEqudo3uymHIQ","name":"The Empanadas House","address":"404 E Green St","city":"Champaign","state":"IL","postal_code":"61820","latitude":40.1104457,"longitude":-88.2330726,"stars":4.5,"review_count":5,"is_open":1,"attributes":{"RestaurantsAttire":"u'casual'","RestaurantsTakeOut":"True","BusinessAcceptsCreditCards":"True","NoiseLevel":"u'quiet'","GoodForKids":"False","RestaurantsReservations":"False","RestaurantsGoodForGroups":"False","BusinessParking":"None","RestaurantsPriceRange2":"1","HasTV":"True","Alcohol":"'none'","BikeParking":"False","RestaurantsDelivery":"True","ByAppointmentOnly":"False","OutdoorSeating":"False"},"categories":"Ethnic Food, Food Trucks, Specialty Food, Imported Food, Argentine, Food, Restaurants, Empanadas","hours":{"Monday":"11:30-14:30","Tuesday":"11:30-14:30","Wednesday":"11:30-14:30","Thursday":"11:30-14:30","Friday":"11:30-14:30"}}
{"business_id":"EosRKXIGeSWFYWwpkbhNnA","name":"Xtreme Couture","address":"700 Kipling Avenue Etobicoke","city":"Toronto","state":"ON","postal_code":"M8Z 5G3","latitude":43.6245394916,"longitude":-79.5291079302,"stars":3.0,"review_count":16,"is_open":1,"attributes":{"GoodForKids":"True","ByAppointmentOnly":"True","BusinessParking":"{'garage': False, 'street': False, 'validated': False, 'lot': False, 'valet': False}","BikeParking":"False"},"categories":"Martial Arts, Gyms, Fitness & Instruction, Active Life","hours":{"Monday":"5:30-23:0","Tuesday":"5:30-23:0","Wednesday":"5:30-23:0","Thursday":"5:30-23:0","Friday":"5:30-23:0","Saturday":"8:0-19:0","Sunday":"8:0-17:0"}}
{"business_id":"MbZMmwo-eL0Jnm_Yb9KJrA","name":"Chinook Landscaping and Design","address":"","city":"Calgary","state":"AB","postal_code":"T2J 2P2","latitude":50.9459599,"longitude":-114.0372072,"stars":5.0,"review_count":3,"is_open":1,"attributes":null,"categories":"Contractors, Landscaping, Home Services","hours":{"Monday":"7:0-17:0","Tuesday":"7:0-17:0","Wednesday":"7:0-17:0","Thursday":"7:0-17:0","Friday":"7:0-17:0","Saturday":"7:0-17:0"}}
{"business_id":"7Dv4_HAxsxvadEsT5fxQBg","name":"Dependable Brakes & Exhaust","address":"1110 Saw Mill Run Blvd","city":"Pittsburgh","state":"PA","postal_code":"15226","latitude":40.4066674,"longitude":-80.0044502,"stars":5.0,"review_count":5,"is_open":1,"attributes":{"BusinessAcceptsCreditCards":"True"},"categories":"Automotive, Auto Repair","hours":{"Monday":"8:0-17:0","Tuesday":"8:0-17:0","Thursday":"8:0-17:0","Friday":"8:0-17:0","Saturday":"8:0-17:0"}}